{
"type": "FeatureCollection",
"name": "hospital",
"features": [
{ "type": "Feature", "properties": { "hospital_i": 1001, "name": "โรงพยาบาลสัตว์บุ่งตาหลั่ว 24ชม. (สาขาพิบูลละเอียด)", "address": "98 ถนน พิบูลละเอียด ตำบลในเมือง อำเภอเมืองนครราชสีมา นครราชสีมา 30000", "contact_nu": "044-275377", "latitude": 102.08491, "longitude": 14.97118, "image": "01.png", "service_de": "ฉีดวัคซีน รักษาโรคทั่วไป ศัลยกรรมกระดูก ศัลยกรรมตาทำหมัน ผสมเทียม เอ๊กซเรย์ ตรวจเลือด" }, "geometry": { "type": "Point", "coordinates": [ 102.08491, 14.97118 ] } },
{ "type": "Feature", "properties": { "hospital_i": 1002, "name": "โรงพยาบาลสัตว์ปากช่อง", "address": "840 1-3 ถ.มิตรภาพ อ.ปากช่อง จ.นครราชสีมา 30130", "contact_nu": "081-999-1023", "latitude": 101.42307, "longitude": 14.71179, "image": "02.png", "service_de": "แนะนำบริการตรวจรักษาโดยการนัดหมาย Appointment ตรวจเพศโดยการส่องกล้องตรวจ Endoscope " }, "geometry": { "type": "Point", "coordinates": [ 101.42307, 14.71179 ] } },
{ "type": "Feature", "properties": { "hospital_i": 1003, "name": "โรงพยาบาลสัตว์โพธิ์กลาง นครราชสีมา", "address": "359 ถ. โพธิ์กลาง, ในเมือง นครราชสีมา 30000", "contact_nu": "092-571-7982", "latitude": 102.09304, "longitude": 14.97532, "image": "03.png", "service_de": "รักษาโรคสัตว์ ผ่าตัด ศัลยกรรม เอกซเรย์ ขูดหินปู วัคซีน ทำคลอด ผสมเทียม ทำหมัน อัลตราซาวด์ ย" }, "geometry": { "type": "Point", "coordinates": [ 102.09304, 14.97532 ] } },
{ "type": "Feature", "properties": { "hospital_i": 1004, "name": "โรงพยาบาลสัตว์นครราชสีมา (สาขาการเคหะ)", "address": "283 มิตรภาพ ซอย 15 ตำบลในเมือง อำเภอเมืองนครราชสีมา นครราชสีมา 30000", "contact_nu": "044-211-889", "latitude": 102.04433, "longitude": 14.95285, "image": "04.png", "service_de": "เพื่อนคนรักสัตว์ เน้นสิ่งที่ดีที่สุด สำหรับสัตว์เลี้ยง อัลตราซาวด์" }, "geometry": { "type": "Point", "coordinates": [ 102.04433, 14.95285 ] } },
{ "type": "Feature", "properties": { "hospital_i": 1005, "name": "โรงพยาบาลสัตว์มหาชัย นครราชสีมา ", "address": "ถ. สุรนารายณ์ ตำบลในเมือง อำเภอเมืองนครราชสีมา นครราชสีมา 30000", "contact_nu": "063-027-1167", "latitude": 102.11997, "longitude": 14.99112, "image": "05.png", "service_de": "รักษาโรคสัตว์ ผ่าตัด ศัลยกรรม เอกซเรย์ ขูดหินปู วัคซีน ทำคลอด ผสมเทียม ทำหมัน อัลตราซาวด์" }, "geometry": { "type": "Point", "coordinates": [ 102.11997, 14.99112 ] } },
{ "type": "Feature", "properties": { "hospital_i": 1006, "name": "สถานพยาบาลสัตว์ มุขมนตรี", "address": "729 ถนนจมุขมนตรี ตำบลในเมือง อำเภอเมืองนครราชศรีมา จังหวัดนครราชสีมา 30000", "contact_nu": "044-248-824", "latitude": 102.069, "longitude": 14.9722, "image": "06.png", "service_de": "ฉีดวัคซีน รักษาโรคทั่วไป ศัลยกรรมกระดูก ศัลยกรรมตาทำหมัน ผสมเทียม เอ๊กซเรย์ ตรวจเลือด " }, "geometry": { "type": "Point", "coordinates": [ 102.069, 14.9722 ] } },
{ "type": "Feature", "properties": { "hospital_i": 1007, "name": "รักษาสัตว์โคราช 24 ชั่วโมง โรงพยาบาลสัตว์ธัญยรักษ์ - นคราชสีมา", "address": "46/1 ถนนพลแสน ตำบลในเมือง อำเภอเมือง จ.นครราชสีมา", "contact_nu": "098-555-2951", "latitude": 102.10259, "longitude": 14.98241, "image": "07.png", "service_de": "รักษาโรคสัตว์ ผ่าตัด ศัลยกรรม เอกซเรย์ ขูดหินปูน วัคซีน ทำคลอด ผสมเทียม" }, "geometry": { "type": "Point", "coordinates": [ 102.10259, 14.98241 ] } },
{ "type": "Feature", "properties": { "hospital_i": 1008, "name": "โรงพยาบาลสัตว์บ้านหมอต้น", "address": "1143/47 หมู่ 1 ถนนสุรนารายณ์ ต.ในเมือง อ.เมืองนครราชสีมา จ.นครราชสีมา", "contact_nu": "081-266-1636", "latitude": 102.0975, "longitude": 14.9796, "image": "08.png", "service_de": "ให้บริการรักษาสัตว์เลี้ยงโดยสัตวแพทย์ผู้เชี่ยวชาญ มีบริการอาบน้ำ-ตัดขน " }, "geometry": { "type": "Point", "coordinates": [ 102.0975, 14.9796 ] } },
{ "type": "Feature", "properties": { "hospital_i": 1009, "name": "โรงพยาบาลสัตว์ศรีวรา โคราช", "address": "1849/11-12 หมู่ 2 ถนนสืบศิริ ต.ในเมือง อ.เมืองนครราชสีมา จ.นครราชสีมา", "contact_nu": "044-353-666", "latitude": 102.09, "longitude": 14.97, "image": "09.png", "service_de": "ให้บริการรักษาสัตว์เลี้ยงทั่วไป โดยทีมสัตวแพทย์มืออาชีพ" }, "geometry": { "type": "Point", "coordinates": [ 102.09, 14.97 ] } },
{ "type": "Feature", "properties": { "hospital_i": 1010, "name": "โรงพยาบาลสัตว์เซ็นเตอร์ เพ็ท", "address": "727/1 หมู่ 5 ต.ปรุใหญ่ อ.เมืองนครราชสีมา จ.นครราชสีมา", "contact_nu": "082-141-4941", "latitude": 102.08, "longitude": 14.955, "image": "10.png", "service_de": "ให้บริการรักษาสัตว์เลี้ยงครบวงจร รวมถึงบริการฉุกเฉิน" }, "geometry": { "type": "Point", "coordinates": [ 102.08, 14.955 ] } },
{ "type": "Feature", "properties": { "hospital_i": 1011, "name": "โรงพยาบาลสัตว์ภาสุข By Dr.Pa", "address": "67/4 หมู่ 3 ถนนราชสีมา-ปักธงชัย ต.ปรุใหญ่ อ.เมืองนครราชสีมา จ.นครราชสีมา", "contact_nu": "086-639-3537", "latitude": 102.1, "longitude": 14.95, "image": "11.png", "service_de": "ให้บริการรักษาสัตว์เลี้ยงทั่วไป โดยสัตวแพทย์ผู้มีประสบการณ์" }, "geometry": { "type": "Point", "coordinates": [ 102.1, 14.95 ] } },
{ "type": "Feature", "properties": { "hospital_i": 1012, "name": "โรงพยาบาลสัตว์ถนอมรักษ์", "address": "179/61 หมู่ 4 ถนนมิตรภาพ ต.ในเมือง อ.เมืองนครราชสีมา จ.นครราชสีมา", "contact_nu": "044-353-994", "latitude": 102.11, "longitude": 14.98, "image": "12.png", "service_de": "ให้บริการรักษาสัตว์เลี้ยงครบวงจร โดยทีมงานมืออาชีพ" }, "geometry": { "type": "Point", "coordinates": [ 102.11, 14.98 ] } },
{ "type": "Feature", "properties": { "hospital_i": 1013, "name": "โนนไทยสัตวแพทย์", "address": "22 หมู่ 5 ต.กำปัง อ.โนนไทย จ.นครราชสีมา", "contact_nu": "089-947-9463", "latitude": 102.0167, "longitude": 15.0333, "image": "13.png", "service_de": "คลินิกรักษาสัตว์ในอำเภอโนนไทย ให้บริการตรวจรักษาและให้คำปรึกษาเกี่ยวกับสัตว์เลี้ยง" }, "geometry": { "type": "Point", "coordinates": [ 102.0167, 15.0333 ] } },
{ "type": "Feature", "properties": { "hospital_i": 1014, "name": "คลินิกบ้านรักษ์สัตว์", "address": "92 หมู่ 9 ต.ปากช่อง อ.ปากช่อง จ.นครราชสีมา", "contact_nu": "081-999-2222", "latitude": 101.42, "longitude": 14.7, "image": "14.png", "service_de": "คลินิกรักษาสัตว์ที่ให้บริการด้วยความเอาใจใส่และมาตรฐานสูง" }, "geometry": { "type": "Point", "coordinates": [ 101.42, 14.7 ] } },
{ "type": "Feature", "properties": { "hospital_i": 1015, "name": "คลินิกหมอไก่รักษาสัตว์", "address": "55 หมู่ 7 ต.สูงเนิน อ.สูงเนิน จ.นครราชสีมา", "contact_nu": "089-845-3647", "latitude": 101.81738526370694, "longitude": 14.899418348969904,  "image": "15.png", "service_de": "ให้บริการรักษาสัตว์เลี้ยงครบวงจร โดยทีมงานมืออาชีพ" }, "geometry": { "type": "Point", "coordinates": [ 101.8333, 14.88 ] } },
{ "type": "Feature", "properties": { "hospital_i": 1016, "name": "คลินิกบ้านหมา-บ้านแมว", "address": "167/1 ถ.พิบูลละเอียด ต.ในเมือง อ.เมือง จ.นครราชสีมา", "contact_nu": "044-273-163", "latitude": 102.08481, "longitude": 14.97179, "image": "16.png", "service_de": "ให้บริการรักษาสัตว์เลี้ยงทั่วไป โดยสัตวแพทย์ผู้มีประสบการณ์" }, "geometry": { "type": "Point", "coordinates": [ 102.08481, 14.97179 ] } }
]
}
